[
    {
      "city": "Toronto",
      "lat": "43.70",
      "lng": "-79.42",
      "country": "Canada",
      "iso2": "CA",
      "admin_name": "Ontario",
      "capital": "Toronto",
      "population": "2731571",
      "population_proper": "2731571"
    },
    {
      "city": "Vancouver",
      "lat": "49.28",
      "lng": "-123.12",
      "country": "Canada",
      "iso2": "CA",
      "admin_name": "British Columbia",
      "capital": "admin",
      "population": "631486",
      "population_proper": "631486"
    },
      {
        "city": "Montreal",
        "lat": "45.51",
        "lng": "-73.59",
        "country": "Canada",
        "iso2": "CA",
        "admin_name": "Quebec",
        "capital": "",
        "population": "",
        "population_proper": ""
      },
      {
        "city": "Ottawa",
        "lat": "45.41",
        "lng": "-75.70",
        "country": "Canada",
        "iso2": "CA",
        "admin_name": "Ontario",
        "capital": "Canada",
        "population": "989567",
        "population_proper": "989567"
      },
      {
        "city": "Banff",
        "lat": "51.18",
        "lng": "-115.57",
        "country": "Canada",
        "iso2": "CA",
        "admin_name": "Alberta",
        "capital": "",
        "population": "",
        "population_proper": ""
      },
      {
        "city": "Brooks",
        "lat": "50.58",
        "lng": "-111.88",
        "country": "Canada",
        "iso2": "CA",
        "admin_name": "Alberta",
        "capital": "",
        "population": "",
        "population_proper": ""
      },
      {
        "city": "Calgary",
        "lat": "51.05",
        "lng": "-114.07",
        "country": "Canada",
        "iso2": "CA",
        "admin_name": "Alberta",
        "capital": "",
        "population": "",
        "population_proper": ""
      },
      {
        "city": "Edmonton",
        "lat": "53.54",
        "lng": "-113.49",
        "country": "Canada",
        "iso2": "CA",
        "admin_name": "Alberta",
        "capital": "",
        "population": "",
        "population_proper": ""
      },
      {
        "city": "Fort McMurray",
        "lat": "56.73",
        "lng": "-111.38",
        "country": "Canada",
        "iso2": "CA",
        "admin_name": "Alberta",
        "capital": "",
        "population": "",
        "population_proper": ""
      },
      {
        "city": "Grande Prairie",
        "lat": "55.17",
        "lng": "-118.79",
        "country": "Canada",
        "iso2": "CA",
        "admin_name": "Alberta",
        "capital": "",
        "population": "",
        "population_proper": ""
      },
    {
      "city": "Bancroft",
      "lat": "45.06",
      "lng": "-77.85",
      "country": "Canada",
      "iso2": "CA",
      "admin_name": "Ontario",
      "capital": "",
      "population": "",
      "population_proper": ""
    },
    {
      "city": "Barrie",
      "lat": "44.38",
      "lng": "-79.70",
      "country": "Canada",
      "iso2": "CA",
      "admin_name": "Ontario",
      "capital": "",
      "population": "141434",
      "population_proper": "141434"
    },
    {
      "city": "Belleville",
      "lat": "44.17",
      "lng": "-77.38",
      "country": "Canada",
      "iso2": "CA",
      "admin_name": "Ontario",
      "capital": "",
      "population": "103472",
      "population_proper": "103472"
    },
    {
      "city": "Brampton",
      "lat": "43.68",
      "lng": "-79.76",
      "country": "Canada",
      "iso2": "CA",
      "admin_name": "Ontario",
      "capital": "",
      "population": "523906",
      "population_proper": "523906"
    },
    {
      "city": "Brantford",
      "lat": "43.14",
      "lng": "-80.27",
      "country": "Canada",
      "iso2": "CA",
      "admin_name": "Ontario",
      "capital": "",
      "population": "134203",
      "population_proper": "134203"
    },
    {
      "city": "Brockville",
      "lat": "44.59",
      "lng": "-75.69",
      "country": "Canada",
      "iso2": "CA",
      "admin_name": "Ontario",
      "capital": "",
      "population": "21257",
      "population_proper": "21257"
    },
    {
      "city": "Burlington",
      "lat": "43.33",
      "lng": "-79.80",
      "country": "Canada",
      "iso2": "CA",
      "admin_name": "Ontario",
      "capital": "",
      "population": "183314",
      "population_proper": "183314"
    },
    {
      "city": "Cambridge",
      "lat": "43.36",
      "lng": "-80.31",
      "country": "Canada",
      "iso2": "CA",
      "admin_name": "Ontario",
      "capital": "",
      "population": "120371",
      "population_proper": "120371"
    },
    {
      "city": "Chatham",
      "lat": "42.41",
      "lng": "-82.18",
      "country": "Canada",
      "iso2": "CA",
      "admin_name": "Ontario",
      "capital": "",
      "population": "107341",
      "population_proper": "107341"
    },
    {
      "city": "Chatham-Kent",
      "lat": "42.41",
      "lng": "-82.18",
      "country": "Canada",
      "iso2": "CA",
      "admin_name": "Ontario",
      "capital": "",
      "population": "",
      "population_proper": ""
    },
    {
      "city": "Cornwall",
      "lat": "45.02",
      "lng": "-74.73",
      "country": "Canada",
      "iso2": "CA",
      "admin_name": "Ontario",
      "capital": "",
      "population": "47545",
      "population_proper": "47545"
    },
    {
      "city": "Elliot Lake",
      "lat": "46.38",
      "lng": "-82.65",
      "country": "Canada",
      "iso2": "CA",
      "admin_name": "Ontario",
      "capital": "",
      "population": "10943",
      "population_proper": "10943"
    },
    {
      "city": "Etobicoke",
      "lat": "43.65",
      "lng": "-79.58",
      "country": "Canada",
      "iso2": "CA",
      "admin_name": "Ontario",
      "capital": "",
      "population": "365143",
      "population_proper": "365143"
    },
    {
      "city": "Fort Erie",
      "lat": "42.92",
      "lng": "-78.92",
      "country": "Canada",
      "iso2": "CA",
      "admin_name": "Ontario",
      "capital": "",
      "population": "30312",
      "population_proper": "30312"
    },
    {
      "city": "Fort Frances",
      "lat": "48.62",
      "lng": "-93.40",
      "country": "Canada",
      "iso2": "CA",
      "admin_name": "Ontario",
      "capital": "",
      "population": "6667",
      "population_proper": "6667"
    },
    {
      "city": "Gananoque",
      "lat": "44.33",
      "lng": "-76.16",
      "country": "Canada",
      "iso2": "CA",
      "admin_name": "Ontario",
      "capital": "",
      "population": "5107",
      "population_proper": "5107"
    },
    {
      "city": "Guelph",
      "lat": "43.55",
      "lng": "-80.25",
      "country": "Canada",
      "iso2": "CA",
      "admin_name": "Ontario",
      "capital": "",
      "population": "131794",
      "population_proper": "131794"
    },
    {
      "city": "Hamilton",
      "lat": "43.26",
      "lng": "-79.87",
      "country": "Canada",
      "iso2": "CA",
      "admin_name": "Ontario",
      "capital": "",
      "population": "536917",
      "population_proper": "536917"
    },
    {
      "city": "Iroquois Falls",
      "lat": "48.77",
      "lng": "-80.67",
      "country": "Canada",
      "iso2": "CA",
      "admin_name": "Ontario",
      "capital": "",
      "population": "4372",
      "population_proper": "4372"
    },
    {
      "city": "Kapuskasing",
      "lat": "49.42",
      "lng": "-82.43",
      "country": "Canada",
      "iso2": "CA",
      "admin_name": "Ontario",
      "capital": "",
      "population": "8242",
      "population_proper": "8242"
    },
    {
      "city": "Kawartha Lakes",
      "lat": "44.35",
      "lng": "-78.73",
      "country": "Canada",
      "iso2": "CA",
      "admin_name": "Ontario",
      "capital": "",
      "population": "75423",
      "population_proper": "75423"
    },
    {
      "city": "Kenora",
      "lat": "49.76",
      "lng": "-94.49",
      "country": "Canada",
      "iso2": "CA",
      "admin_name": "Ontario",
      "capital": "",
      "population": "15400",
      "population_proper": "15400"
    },
    {
      "city": "Kingston",
      "lat": "44.23",
      "lng": "-76.48",
      "country": "Canada",
      "iso2": "CA",
      "admin_name": "Ontario",
      "capital": "",
      "population": "136710",
      "population_proper": "136710"
    },
    {
      "city": "Kirkland Lake",
      "lat": "48.15",
      "lng": "-80.03",
      "country": "Canada",
      "iso2": "CA",
      "admin_name": "Ontario",
      "capital": "",
      "population": "7736",
      "population_proper": "7736"
    },
    {
      "city": "Kitchener",
      "lat": "43.45",
      "lng": "-80.49",
      "country": "Canada",
      "iso2": "CA",
      "admin_name": "Ontario",
      "capital": "",
      "population": "417001",
      "population_proper": "417001"
    },
    {
      "city": "Laurentian Hills",
      "lat": "46.14",
      "lng": "-78.99",
      "country": "Canada",
      "iso2": "CA",
      "admin_name": "Ontario",
      "capital": "",
      "population": "2970",
      "population_proper": "2970"
    },
    {
      "city": "London",
      "lat": "42.97",
      "lng": "-81.25",
      "country": "Canada",
      "iso2": "CA",
      "admin_name": "Ontario",
      "capital": "",
      "population": "474786",
      "population_proper": "474786"
    },
    {
      "city": "Midland",
      "lat": "44.75",
      "lng": "-79.88",
      "country": "Canada",
      "iso2": "CA",
      "admin_name": "Ontario",
      "capital": "",
      "population": "16893",
      "population_proper": "16893"
    },
    {
      "city": "Mississauga",
      "lat": "43.59",
      "lng": "-79.64",
      "country": "Canada",
      "iso2": "CA",
      "admin_name": "Ontario",
      "capital": "",
      "population": "713443",
      "population_proper": "713443"
    },
    {
      "city": "Moose Factory",
      "lat": "51.26",
      "lng": "-80.61",
      "country": "Canada",
      "iso2": "CA",
      "admin_name": "Ontario",
      "capital": "",
      "population": "2457",
      "population_proper": "2457"
    },
    {
      "city": "Moosonee",
      "lat": "51.27",
      "lng": "-80.64",
      "country": "Canada",
      "iso2": "CA",
      "admin_name": "Ontario",
      "capital": "",
      "population": "1710",
      "population_proper": "1710"
    },
    {
      "city": "Niagara Falls",
      "lat": "43.10",
      "lng": "-79.04",
      "country": "Canada",
      "iso2": "CA",
      "admin_name": "Ontario",
      "capital": "",
      "population": "88271",
      "population_proper": "88271"
    },
    {
      "city": "Niagara-on-the-Lake",
      "lat": "43.26",
      "lng": "-79.06",
      "country": "Canada",
      "iso2": "CA",
      "admin_name": "Ontario",
      "capital": "",
      "population": "17135",
      "population_proper": "17135"
    },
    {
      "city": "North Bay",
      "lat": "46.32",
      "lng": "-79.46",
      "country": "Canada",
      "iso2": "CA",
      "admin_name": "Ontario",
      "capital": "",
      "population": "51638",
      "population_proper": "51638"
    },
    {
      "city": "North York",
      "lat": "43.77",
      "lng": "-79.41",
      "country": "Canada",
      "iso2": "CA",
      "admin_name": "Ontario",
      "capital": "",
      "population": "655913",
      "population_proper": "655913"
    },
    {
      "city": "Oakville",
      "lat": "43.45",
      "lng": "-79.69",
      "country": "Canada",
      "iso2": "CA",
      "admin_name": "Ontario",
      "capital": "",
      "population": "182520",
      "population_proper": "182520"
    },
    {
      "city": "Orillia",
      "lat": "44.61",
      "lng": "-79.42",
      "country": "Canada",
      "iso2": "CA",
      "admin_name": "Ontario",
      "capital": "",
      "population": "31769",
      "population_proper": "31769"
    },
    {
      "city": "Oshawa",
      "lat": "43.90",
      "lng": "-78.86",
      "country": "Canada",
      "iso2": "CA",
      "admin_name": "Ontario",
      "capital": "",
      "population": "379848",
      "population_proper": "379848"
    },
    {
      "city": "Ottawa",
      "lat": "45.41",
      "lng": "-75.70",
      "country": "Canada",
      "iso2": "CA",
      "admin_name": "Ontario",
      "capital": "Canada",
      "population": "989567",
      "population_proper": "989567"
    },
    {
      "city": "Owen Sound",
      "lat": "44.57",
      "lng": "-80.94",
      "country": "Canada",
      "iso2": "CA",
      "admin_name": "Ontario",
      "capital": "",
      "population": "21797",
      "population_proper": "21797"
    },
    {
      "city": "Pembroke",
      "lat": "45.82",
      "lng": "-77.12",
      "country": "Canada",
      "iso2": "CA",
      "admin_name": "Ontario",
      "capital": "",
      "population": "14724",
      "population_proper": "14724"
    },
    {
      "city": "Perth",
      "lat": "44.90",
      "lng": "-76.25",
      "country": "Canada",
      "iso2": "CA",
      "admin_name": "Ontario",
      "capital": "",
      "population": "6090",
      "population_proper": "6090"
    },
    {
      "city": "Peterborough",
      "lat": "44.30",
      "lng": "-78.32",
      "country": "Canada",
      "iso2": "CA",
      "admin_name": "Ontario",
      "capital": "",
      "population": "121721",
      "population_proper": "121721"
    },
    {
      "city": "Pickering",
      "lat": "43.85",
      "lng": "-79.04",
      "country": "Canada",
      "iso2": "CA",
      "admin_name": "Ontario",
      "capital": "",
      "population": "91919",
      "population_proper": "91919"
    },
    {
      "city": "Port Colborne",
      "lat": "42.88",
      "lng": "-79.23",
      "country": "Canada",
      "iso2": "CA",
      "admin_name": "Ontario",
      "capital": "",
      "population": "18807",
      "population_proper": "18807"
    },
    {
      "city": "Prince Edward",
      "lat": "44.00",
      "lng": "-77.25",
      "country": "Canada",
      "iso2": "CA",
      "admin_name": "Ontario",
      "capital": "",
      "population": "25708",
      "population_proper": "25708"
    },
    {
      "city": "Quinte West",
      "lat": "44.20",
      "lng": "-77.58",
      "country": "Canada",
      "iso2": "CA",
      "admin_name": "Ontario",
      "capital": "",
      "population": "43609",
      "population_proper": "43609"
    },
    {
      "city": "Richmond Hill",
      "lat": "43.87",
      "lng": "-79.44",
      "country": "Canada",
      "iso2": "CA",
      "admin_name": "Ontario",
      "capital": "",
      "population": "209586",
      "population_proper": "209586"
    },
    {
      "city": "Sarnia",
      "lat": "42.98",
      "lng": "-82.41",
      "country": "Canada",
      "iso2": "CA",
      "admin_name": "Ontario",
      "capital": "",
      "population": "74382",
      "population_proper": "74382"
    },
    {
      "city": "Sault Ste. Marie",
      "lat": "46.52",
      "lng": "-84.33",
      "country": "Canada",
      "iso2": "CA",
      "admin_name": "Ontario",
      "capital": "",
      "population": "75009",
      "population_proper": "75009"
    },
    {
      "city": "Scarborough",
      "lat": "43.77",
      "lng": "-79.24",
      "country": "Canada",
      "iso2": "CA",
      "admin_name": "Ontario",
      "capital": "",
      "population": "632098",
      "population_proper": "632098"
    },
    {
      "city": "Simcoe",
      "lat": "42.83",
      "lng": "-80.30",
      "country": "Canada",
      "iso2": "CA",
      "admin_name": "Ontario",
      "capital": "",
      "population": "14764",
      "population_proper": "14764"
    },
    {
      "city": "Sioux Lookout",
      "lat": "50.10",
      "lng": "-91.92",
      "country": "Canada",
      "iso2": "CA",
      "admin_name": "Ontario",
      "capital": "",
      "population": "5461",
      "population_proper": "5461"
    },
    {
      "city": "Smiths Falls",
      "lat": "44.90",
      "lng": "-76.02",
      "country": "Canada",
      "iso2": "CA",
      "admin_name": "Ontario",
      "capital": "",
      "population": "9474",
      "population_proper": "9474"
    },
    {
      "city": "St. Catharines",
      "lat": "43.16",
      "lng": "-79.23",
      "country": "Canada",
      "iso2": "CA",
      "admin_name": "Ontario",
      "capital": "",
      "population": "133113",
      "population_proper": "133113"
    },
    {
      "city": "St. Thomas",
      "lat": "42.78",
      "lng": "-81.19",
      "country": "Canada",
      "iso2": "CA",
      "admin_name": "Ontario",
      "capital": "",
      "population": "38755",
      "population_proper": "38755"
    },
    {
      "city": "Stratford",
      "lat": "43.37",
      "lng": "-80.98",
      "country": "Canada",
      "iso2": "CA",
      "admin_name": "Ontario",
      "capital": "",
      "population": "31064",
      "population_proper": "31064"
    },
    {
      "city": "Sudbury",
      "lat": "46.49",
      "lng": "-80.99",
      "country": "Canada",
      "iso2": "CA",
      "admin_name": "Ontario",
      "capital": "",
      "population": "147853",
      "population_proper": "147853"
    },
    {
      "city": "Thames Centre",
      "lat": "42.96",
      "lng": "-81.20",
      "country": "Canada",
      "iso2": "CA",
      "admin_name": "Ontario",
      "capital": "",
      "population": "13310",
      "population_proper": "13310"
    },
    {
      "city": "Thorold",
      "lat": "43.12",
      "lng": "-79.20",
      "country": "Canada",
      "iso2": "CA",
      "admin_name": "Ontario",
      "capital": "",
      "population": "19734",
      "population_proper": "19734"
    },
    {
      "city": "Thunder Bay",
      "lat": "48.38",
      "lng": "-89.25",
      "country": "Canada",
      "iso2": "CA",
      "admin_name": "Ontario",
      "capital": "",
      "population": "99568",
      "population_proper": "99568"
    },
    {
      "city": "Tillsonburg",
      "lat": "42.87",
      "lng": "-80.73",
      "country": "Canada",
      "iso2": "CA",
      "admin_name": "Ontario",
      "capital": "",
      "population": "16714",
      "population_proper": "16714"
    },
    {
      "city": "Timmins",
      "lat": "48.48",
      "lng": "-81.33",
      "country": "Canada",
      "iso2": "CA",
      "admin_name": "Ontario",
      "capital": "",
      "population": "41488",
      "population_proper": "41488"
    },
    {
      "city": "Toronto",
      "lat": "43.70",
      "lng": "-79.42",
      "country": "Canada",
      "iso2": "CA",
      "admin_name": "Ontario",
      "capital": "admin",
      "population": "5429524",
      "population_proper": "5429524"
    },
    {
      "city": "Trent Hills",
      "lat": "44.18",
      "lng": "-77.87",
      "country": "Canada",
      "iso2": "CA",
      "admin_name": "Ontario",
      "capital": "",
      "population": "11915",
      "population_proper": "11915"
    },
    {
      "city": "Vaughan",
      "lat": "43.84",
      "lng": "-79.51",
      "country": "Canada",
      "iso2": "CA",
      "admin_name": "Ontario",
      "capital": "",
      "population": "306233",
      "population_proper": "306233"
    },
    {
      "city": "Waterloo",
      "lat": "43.47",
      "lng": "-80.52",
      "country": "Canada",
      "iso2": "CA",
      "admin_name": "Ontario",
      "capital": "",
      "population": "113569",
      "population_proper": "113569"
    },
    {
      "city": "Welland",
      "lat": "42.98",
      "lng": "-79.25",
      "country": "Canada",
      "iso2": "CA",
      "admin_name": "Ontario",
      "capital": "",
      "population": "52936",
      "population_proper": "52936"
    },
    {
      "city": "Whitby",
      "lat": "43.88",
      "lng": "-78.94",
      "country": "Canada",
      "iso2": "CA",
      "admin_name": "Ontario",
      "capital": "",
      "population": "128377",
      "population_proper": "128377"
    },
    {
      "city": "Windsor",
      "lat": "42.31",
      "lng": "-83.04",
      "country": "Canada",
      "iso2": "CA",
      "admin_name": "Ontario",
      "capital": "",
      "population": "280011",
      "population_proper": "280011"
    },
    {
      "city": "Woodstock",
      "lat": "43.13",
      "lng": "-80.75",
      "country": "Canada",
      "iso2": "CA",
      "admin_name": "Ontario",
      "capital": "",
      "population": "40398",
      "population_proper": "40398"
    },
    {
      "city": "Alma",
      "lat": "48.55",
      "lng": "-71.65",
      "country": "Canada",
      "iso2": "CA",
      "admin_name": "Quebec",
      "capital": "",
      "population": "30378",
      "population_proper": "30378"
    },
    {
      "city": "Amos",
      "lat": "48.57",
      "lng": "-78.12",
      "country": "Canada",
      "iso2": "CA",
      "admin_name": "Quebec",
      "capital": "",
      "population": "12623",
      "population_proper": "12623"
    },
    {
      "city": "Amqui",
      "lat": "48.47",
      "lng": "-67.43",
      "country": "Canada",
      "iso2": "CA",
      "admin_name": "Quebec",
      "capital": "",
      "population": "6030",
      "population_proper": "6030"
    },
    {
      "city": "Asbestos",
      "lat": "45.77",
      "lng": "-71.93",
      "country": "Canada",
      "iso2": "CA",
      "admin_name": "Quebec",
      "capital": "",
      "population": "6674",
      "population_proper": "6674"
    },
    {
      "city": "Baie-Comeau",
      "lat": "49.22",
      "lng": "-68.15",
      "country": "Canada",
      "iso2": "CA",
      "admin_name": "Quebec",
      "capital": "",
      "population": "20200",
      "population_proper": "20200"
    },
    {
      "city": "Baie-Saint-Paul",
      "lat": "47.45",
      "lng": "-70.50",
      "country": "Canada",
      "iso2": "CA",
      "admin_name": "Quebec",
      "capital": "",
      "population": "6949",
      "population_proper": "6949"
    },
    {
      "city": "Beaconsfield",
      "lat": "45.42",
      "lng": "-73.87",
      "country": "Canada",
      "iso2": "CA",
      "admin_name": "Quebec",
      "capital": "",
      "population": "19954",
      "population_proper": "19954"
    },
    {
      "city": "Beauceville",
      "lat": "46.22",
      "lng": "-70.77",
      "country": "Canada",
      "iso2": "CA",
      "admin_name": "Quebec",
      "capital": "",
      "population": "7256",
      "population_proper": "7256"
    },
    {
      "city": "Beauharnois",
      "lat": "45.32",
      "lng": "-73.87",
      "country": "Canada",
      "iso2": "CA",
      "admin_name": "Quebec",
      "capital": "",
      "population": "12280",
      "population_proper": "12280"
    },
    {
      "city": "Beaupré",
      "lat": "47.05",
      "lng": "-70.92",
      "country": "Canada",
      "iso2": "CA",
      "admin_name": "Quebec",
      "capital": "",
      "population": "3867",
      "population_proper": "3867"
    },
    {
      "city": "Bécancour",
      "lat": "46.33",
      "lng": "-72.42",
      "country": "Canada",
      "iso2": "CA",
      "admin_name": "Quebec",
      "capital": "",
      "population": "12824",
      "population_proper": "12824"
    },
    {
      "city": "Bedford",
      "lat": "45.12",
      "lng": "-72.97",
      "country": "Canada",
      "iso2": "CA",
      "admin_name": "Quebec",
      "capital": "",
      "population": "2727",
      "population_proper": "2727"
    },
    {
      "city": "Belleterre",
      "lat": "47.38",
      "lng": "-78.70",
      "country": "Canada",
      "iso2": "CA",
      "admin_name": "Quebec",
      "capital": "",
      "population": "313",
      "population_proper": "313"
    },
    {
      "city": "Beloeil",
      "lat": "45.57",
      "lng": "-73.20",
      "country": "Canada",
      "iso2": "CA",
      "admin_name": "Quebec",
      "capital": "",
      "population": "23244",
      "population_proper": "23244"
    },
    {
      "city": "Berthierville",
      "lat": "46.08",
      "lng": "-73.18",
      "country": "Canada",
      "iso2": "CA",
      "admin_name": "Quebec",
      "capital": "",
      "population": "3936",
      "population_proper": "3936"
    },
    {
      "city": "Blainville",
      "lat": "45.68",
      "lng": "-73.87",
      "country": "Canada",
      "iso2": "CA",
      "admin_name": "Quebec",
      "capital": "",
      "population": "56613",
      "population_proper": "56613"
    },
    {
      "city": "Boisbriand",
      "lat": "45.62",
      "lng": "-73.83",
      "country": "Canada",
      "iso2": "CA",
      "admin_name": "Quebec",
      "capital": "",
      "population": "26808",
      "population_proper": "26808"
    },
    {
      "city": "Bois-des-Filion",
      "lat": "45.62",
      "lng": "-73.82",
      "country": "Canada",
      "iso2": "CA",
      "admin_name": "Quebec",
      "capital": "",
      "population": "12945",
      "population_proper": "12945"
    },
    {
      "city": "Boucherville",
      "lat": "45.60",
      "lng": "-73.45",
      "country": "Canada",
      "iso2": "CA",
      "admin_name": "Quebec",
      "capital": "",
      "population": "43869",
      "population_proper": "43869"
    },
    {
      "city": "Brome Lake",
      "lat": "45.22",
      "lng": "-72.57",
      "country": "Canada",
      "iso2": "CA",
      "admin_name": "Quebec",
      "capital": "",
      "population": "5549",
      "population_proper": "5549"
    },
    {
      "city": "Bromont",
      "lat": "45.32",
      "lng": "-72.65",
      "country": "Canada",
      "iso2": "CA",
      "admin_name": "Quebec",
      "capital": "",
      "population": "8444",
      "population_proper": "8444"
    },
    {
      "city": "Brossard",
      "lat": "45.45",
      "lng": "-73.47",
      "country": "Canada",
      "iso2": "CA",
      "admin_name": "Quebec",
      "capital": "",
      "population": "87104",
      "population_proper": "87104"
    },
    {
      "city": "Brownsburg-Chatham",
      "lat": "45.64",
      "lng": "-74.44",
      "country": "Canada",
      "iso2": "CA",
      "admin_name": "Quebec",
      "capital": "",
      "population": "8250",
      "population_proper": "8250"
    },
    {
      "city": "Candiac",
      "lat": "45.38",
      "lng": "-73.51",
      "country": "Canada",
      "iso2": "CA",
      "admin_name": "Quebec",
      "capital": "",
      "population": "20367",
      "population_proper": "20367"
    },
    {
      "city": "Carignan",
      "lat": "45.43",
      "lng": "-73.32",
      "country": "Canada",
      "iso2": "CA",
      "admin_name": "Quebec",
      "capital": "",
      "population": "11368",
      "population_proper": "11368"
    },
    {
      "city": "Carleton-sur-Mer",
      "lat": "48.10",
      "lng": "-66.13",
      "country": "Canada",
      "iso2": "CA",
      "admin_name": "Quebec",
      "capital": "",
      "population": "3275",
      "population_proper": "3275"
    },
    {
      "city": "Causapscal",
      "lat": "48.35",
      "lng": "-67.23",
      "country": "Canada",
      "iso2": "CA",
      "admin_name": "Quebec",
      "capital": "",
      "population": "1906",
      "population_proper": "1906"
    },
    {
      "city": "Chambly",
      "lat": "45.45",
      "lng": "-73.28",
      "country": "Canada",
      "iso2": "CA",
      "admin_name": "Quebec",
      "capital": "",
      "population": "29614",
      "population_proper": "29614"
    },
    {
      "city": "Chandler",
      "lat": "48.35",
      "lng": "-64.68",
      "country": "Canada",
      "iso2": "CA",
      "admin_name": "Quebec",
      "capital": "",
      "population": "6073",
      "population_proper": "6073"
    },
    {
      "city": "Château-Richer",
      "lat": "46.97",
      "lng": "-71.02",
      "country": "Canada",
      "iso2": "CA",
      "admin_name": "Quebec",
      "capital": "",
      "population": "3620",
      "population_proper": "3620"
    },
    {
      "city": "Châteauguay",
      "lat": "45.37",
      "lng": "-73.75",
      "country": "Canada",
      "iso2": "CA",
      "admin_name": "Quebec",
      "capital": "",
      "population": "47995",
      "population_proper": "47995"
    },
    {
      "city": "Château-Thierry",
      "lat": "45.48",
      "lng": "-73.83",
      "country": "Canada",
      "iso2": "CA",
      "admin_name": "Quebec",
      "capital": "",
      "population": "1845",
      "population_proper": "1845"
    },
    {
      "city": "Chibougamau",
      "lat": "49.92",
      "lng": "-74.37",
      "country": "Canada",
      "iso2": "CA",
      "admin_name": "Quebec",
      "capital": "",
      "population": "7505",
      "population_proper": "7505"
    },
    {
      "city": "Clermont",
      "lat": "46.88",
      "lng": "-71.89",
      "country": "Canada",
      "iso2": "CA",
      "admin_name": "Quebec",
      "capital": "",
      "population": "1324",
      "population_proper": "1324"
    },
    {
      "city": "Coaticook",
      "lat": "45.13",
      "lng": "-71.80",
      "country": "Canada",
      "iso2": "CA",
      "admin_name": "Quebec",
      "capital": "",
      "population": "9377",
      "population_proper": "9377"
    },
    {
      "city": "Contrecoeur",
      "lat": "45.70",
      "lng": "-73.23",
      "country": "Canada",
      "iso2": "CA",
      "admin_name": "Quebec",
      "capital": "",
      "population": "6908",
      "population_proper": "6908"
    },
    {
      "city": "Cookshire-Eaton",
      "lat": "45.42",
      "lng": "-71.63",
      "country": "Canada",
      "iso2": "CA",
      "admin_name": "Quebec",
      "capital": "",
      "population": "5793",
      "population_proper": "5793"
    },
    {
      "city": "Côte Saint-Luc",
      "lat": "45.47",
      "lng": "-73.65",
      "country": "Canada",
      "iso2": "CA",
      "admin_name": "Quebec",
      "capital": "",
      "population": "32588",
      "population_proper": "32588"
    },
    {
      "city": "Côteau-du-Lac",
      "lat": "45.30",
      "lng": "-74.15",
      "country": "Canada",
      "iso2": "CA",
      "admin_name": "Quebec",
      "capital": "",
      "population": "7880",
      "population_proper": "7880"
    },
    {
      "city": "Cowansville",
      "lat": "45.20",
      "lng": "-72.75",
      "country": "Canada",
      "iso2": "CA",
      "admin_name": "Quebec",
      "capital": "",
      "population": "12685",
      "population_proper": "12685"
    },
    {
      "city": "Danville",
      "lat": "45.78",
      "lng": "-72.01",
      "country": "Canada",
      "iso2": "CA",
      "admin_name": "Quebec",
      "capital": "",
      "population": "4633",
      "population_proper": "4633"
    },
    {
      "city": "Daveluyville",
      "lat": "46.23",
      "lng": "-72.04",
      "country": "Canada",
      "iso2": "CA",
      "admin_name": "Quebec",
      "capital": "",
      "population": "3015",
      "population_proper": "3015"
    },
    {
      "city": "Dégelis",
      "lat": "47.53",
      "lng": "-68.65",
      "country": "Canada",
      "iso2": "CA",
      "admin_name": "Quebec",
      "capital": "",
      "population": "4300",
      "population_proper": "4300"
    },
    {
      "city": "Delson",
      "lat": "45.37",
      "lng": "-73.53",
      "country": "Canada",
      "iso2": "CA",
      "admin_name": "Quebec",
      "capital": "",
      "population": "7804",
      "population_proper": "7804"
    },
    {
      "city": "Desbiens",
      "lat": "48.40",
      "lng": "-71.83",
      "country": "Canada",
      "iso2": "CA",
      "admin_name": "Quebec",
      "capital": "",
      "population": "2615",
      "population_proper": "2615"
    },
    {
      "city": "Dégelis",
      "lat": "47.53",
      "lng": "-68.65",
      "country": "Canada",
      "iso2": "CA",
      "admin_name": "Quebec",
      "capital": "",
      "population": "4300",
      "population_proper": "4300"
    },
    {
      "city": "Delson",
      "lat": "45.37",
      "lng": "-73.53",
      "country": "Canada",
      "iso2": "CA",
      "admin_name": "Quebec",
      "capital": "",
      "population": "7804",
      "population_proper": "7804"
    },
    {
      "city": "Desbiens",
      "lat": "48.40",
      "lng": "-71.83",
      "country": "Canada",
      "iso2": "CA",
      "admin_name": "Quebec",
      "capital": "",
      "population": "2615",
      "population_proper": "2615"
    },
    {
      "city": "Deux-Montagnes",
      "lat": "45.54",
      "lng": "-73.90",
      "country": "Canada",
      "iso2": "CA",
      "admin_name": "Quebec",
      "capital": "",
      "population": "17764",
      "population_proper": "17764"
    },
    {
      "city": "Disraeli",
      "lat": "45.88",
      "lng": "-71.35",
      "country": "Canada",
      "iso2": "CA",
      "admin_name": "Quebec",
      "capital": "",
      "population": "2223",
      "population_proper": "2223"
    },
    {
      "city": "Dolbeau-Mistassini",
      "lat": "48.88",
      "lng": "-72.23",
      "country": "Canada",
      "iso2": "CA",
      "admin_name": "Quebec",
      "capital": "",
      "population": "13756",
      "population_proper": "13756"
    },
    {
      "city": "Dollard-Des Ormeaux",
      "lat": "45.47",
      "lng": "-73.83",
      "country": "Canada",
      "iso2": "CA",
      "admin_name": "Quebec",
      "capital": "",
      "population": "50477",
      "population_proper": "50477"
    },
    {
      "city": "Donnacona",
      "lat": "46.68",
      "lng": "-71.73",
      "country": "Canada",
      "iso2": "CA",
      "admin_name": "Quebec",
      "capital": "",
      "population": "5823",
      "population_proper": "5823"
    },
    {
      "city": "Dorval",
      "lat": "45.45",
      "lng": "-73.75",
      "country": "Canada",
      "iso2": "CA",
      "admin_name": "Quebec",
      "capital": "",
      "population": "18790",
      "population_proper": "18790"
    },
    {
      "city": "Drummondville",
      "lat": "45.88",
      "lng": "-72.48",
      "country": "Canada",
      "iso2": "CA",
      "admin_name": "Quebec",
      "capital": "",
      "population": "77765",
      "population_proper": "77765"
    },
    {
      "city": "Dunham",
      "lat": "45.22",
      "lng": "-72.77",
      "country": "Canada",
      "iso2": "CA",
      "admin_name": "Quebec",
      "capital": "",
      "population": "3433",
      "population_proper": "3433"
    },
    {
      "city": "Duparquet",
      "lat": "48.58",
      "lng": "-79.23",
      "country": "Canada",
      "iso2": "CA",
      "admin_name": "Quebec",
      "capital": "",
      "population": "627",
      "population_proper": "627"
    },
    {
      "city": "East Angus",
      "lat": "45.47",
      "lng": "-71.66",
      "country": "Canada",
      "iso2": "CA",
      "admin_name": "Quebec",
      "capital": "",
      "population": "3373",
      "population_proper": "3373"
    },
    {
      "city": "Estérel",
      "lat": "46.05",
      "lng": "-74.08",
      "country": "Canada",
      "iso2": "CA",
      "admin_name": "Quebec",
      "capital": "",
      "population": "3145",
      "population_proper": "3145"
    },
    {
      "city": "Farnham",
      "lat": "45.28",
      "lng": "-72.98",
      "country": "Canada",
      "iso2": "CA",
      "admin_name": "Quebec",
      "capital": "",
      "population": "6891",
      "population_proper": "6891"
    },
    {
      "city": "Fermont",
      "lat": "52.80",
      "lng": "-67.09",
      "country": "Canada",
      "iso2": "CA",
      "admin_name": "Quebec",
      "capital": "",
      "population": "2502",
      "population_proper": "2502"
    },
    {
      "city": "Forestville",
      "lat": "48.74",
      "lng": "-69.09",
      "country": "Canada",
      "iso2": "CA",
      "admin_name": "Quebec",
      "capital": "",
      "population": "4245",
      "population_proper": "4245"
    },
    {
      "city": "Fossambault-sur-le-Lac",
      "lat": "46.96",
      "lng": "-71.42",
      "country": "Canada",
      "iso2": "CA",
      "admin_name": "Quebec",
      "capital": "",
      "population": "4859",
      "population_proper": "4859"
    },
    {
      "city": "Gaspé",
      "lat": "48.84",
      "lng": "-64.49",
      "country": "Canada",
      "iso2": "CA",
      "admin_name": "Quebec",
      "capital": "",
      "population": "14290",
      "population_proper": "14290"
    },
    {
      "city": "Gatineau",
      "lat": "45.42",
      "lng": "-75.70",
      "country": "Canada",
      "iso2": "CA",
      "admin_name": "Quebec",
      "capital": "",
      "population": "276245",
      "population_proper": "276245"
    },
    {
      "city": "Gracefield",
      "lat": "46.08",
      "lng": "-76.13",
      "country": "Canada",
      "iso2": "CA",
      "admin_name": "Quebec",
      "capital": "",
      "population": "2835",
      "population_proper": "2835"
    },
    {
      "city": "Granby",
      "lat": "45.40",
      "lng": "-72.73",
      "country": "Canada",
      "iso2": "CA",
      "admin_name": "Quebec",
      "capital": "",
      "population": "65961",
      "population_proper": "65961"
    },
    {
      "city": "Grand-Mère",
      "lat": "46.63",
      "lng": "-72.62",
      "country": "Canada",
      "iso2": "CA",
      "admin_name": "Quebec",
      "capital": "",
      "population": "13020",
      "population_proper": "13020"
    },
    {
      "city": "Hampstead",
      "lat": "45.48",
      "lng": "-73.64",
      "country": "Canada",
      "iso2": "CA",
      "admin_name": "Quebec",
      "capital": "",
      "population": "7233",
      "population_proper": "7233"
    },
    {
      "city": "Hudson",
      "lat": "45.45",
      "lng": "-74.14",
      "country": "Canada",
      "iso2": "CA",
      "admin_name": "Quebec",
      "capital": "",
      "population": "5242",
      "population_proper": "5242"
    },
    {
      "city": "Huntingdon",
      "lat": "45.08",
      "lng": "-74.17",
      "country": "Canada",
      "iso2": "CA",
      "admin_name": "Quebec",
      "capital": "",
      "population": "2604",
      "population_proper": "2604"
    },
    {
      "city": "Joliette",
      "lat": "46.02",
      "lng": "-73.44",
      "country": "Canada",
      "iso2": "CA",
      "admin_name": "Quebec",
      "capital": "",
      "population": "41272",
      "population_proper": "41272"
    },
    {
      "city": "Kingsey Falls",
      "lat": "45.98",
      "lng": "-72.08",
      "country": "Canada",
      "iso2": "CA",
      "admin_name": "Quebec",
      "capital": "",
      "population": "2964",
      "population_proper": "2964"
    },
    {
      "city": "Kirkland",
      "lat": "45.46",
      "lng": "-73.86",
      "country": "Canada",
      "iso2": "CA",
      "admin_name": "Quebec",
      "capital": "",
      "population": "21678",
      "population_proper": "21678"
    },
    {
      "city": "La Malbaie",
      "lat": "47.65",
      "lng": "-70.15",
      "country": "Canada",
      "iso2": "CA",
      "admin_name": "Quebec",
      "capital": "",
      "population": "8922",
      "population_proper": "8922"
    },
    {
      "city": "La Pocatière",
      "lat": "47.37",
      "lng": "-70.05",
      "country": "Canada",
      "iso2": "CA",
      "admin_name": "Quebec",
      "capital": "",
      "population": "4821",
      "population_proper": "4821"
    },
    {
      "city": "La Prairie",
      "lat": "45.42",
      "lng": "-73.50",
      "country": "Canada",
      "iso2": "CA",
      "admin_name": "Quebec",
      "capital": "",
      "population": "25679",
      "population_proper": "25679"
    },
    {
      "city": "La Sarre",
      "lat": "48.80",
      "lng": "-79.20",
      "country": "Canada",
      "iso2": "CA",
      "admin_name": "Quebec",
      "capital": "",
      "population": "7713",
      "population_proper": "7713"
    },
    {
      "city": "La Tuque",
      "lat": "47.43",
      "lng": "-72.78",
      "country": "Canada",
      "iso2": "CA",
      "admin_name": "Quebec",
      "capital": "",
      "population": "10593",
      "population_proper": "10593"
    },
    {
      "city": "L'Assomption",
      "lat": "45.83",
      "lng": "-73.42",
      "country": "Canada",
      "iso2": "CA",
      "admin_name": "Quebec",
      "capital": "",
      "population": "24860",
      "population_proper": "24860"
    },
    {
      "city": "L'Ancienne-Lorette",
      "lat": "46.79",
      "lng": "-71.35",
      "country": "Canada",
      "iso2": "CA",
      "admin_name": "Quebec",
      "capital": "",
      "population": "17699",
      "population_proper": "17699"
    },
    {
      "city": "L'Assomption",
      "lat": "45.83",
      "lng": "-73.42",
      "country": "Canada",
      "iso2": "CA",
      "admin_name": "Quebec",
      "capital": "",
      "population": "24860",
      "population_proper": "24860"
    },
    {
      "city": "L'Ancienne-Lorette",
      "lat": "46.79",
      "lng": "-71.35",
      "country": "Canada",
      "iso2": "CA",
      "admin_name": "Quebec",
      "capital": "",
      "population": "17699",
      "population_proper": "17699"
    },
    {
      "city": "L'Assomption",
      "lat": "45.83",
      "lng": "-73.42",
      "country": "Canada",
      "iso2": "CA",
      "admin_name": "Quebec",
      "capital": "",
      "population": "24860",
      "population_proper": "24860"
    },
    {
      "city": "L'Ancienne-Lorette",
      "lat": "46.79",
      "lng": "-71.35",
      "country": "Canada",
      "iso2": "CA",
      "admin_name": "Quebec",
      "capital": "",
      "population": "17699",
      "population_proper": "17699"
    },
    {
      "city": "L'Épiphanie",
      "lat": "45.83",
      "lng": "-73.43",
      "country": "Canada",
      "iso2": "CA",
      "admin_name": "Quebec",
      "capital": "",
      "population": "5961",
      "population_proper": "5961"
    },
    {
      "city": "L'Île-Cadieux",
      "lat": "45.40",
      "lng": "-74.03",
      "country": "Canada",
      "iso2": "CA",
      "admin_name": "Quebec",
      "capital": "",
      "population": "0",
      "population_proper": "0"
    },
    {
      "city": "L'Île-Dorval",
      "lat": "45.43",
      "lng": "-73.76",
      "country": "Canada",
      "iso2": "CA",
      "admin_name": "Quebec",
      "capital": "",
      "population": "0",
      "population_proper": "0"
    },
    {
      "city": "L'Île-Perrot",
      "lat": "45.38",
      "lng": "-73.95",
      "country": "Canada",
      "iso2": "CA",
      "admin_name": "Quebec",
      "capital": "",
      "population": "10128",
      "population_proper": "10128"
    },
    {
      "city": "L'Islet",
      "lat": "47.10",
      "lng": "-70.27",
      "country": "Canada",
      "iso2": "CA",
      "admin_name": "Quebec",
      "capital": "",
      "population": "3379",
      "population_proper": "3379"
    },
    {
      "city": "La Malbaie",
      "lat": "47.65",
      "lng": "-70.15",
      "country": "Canada",
      "iso2": "CA",
      "admin_name": "Quebec",
      "capital": "",
      "population": "8922",
      "population_proper": "8922"
    },
    {
      "city": "La Pocatière",
      "lat": "47.37",
      "lng": "-70.05",
      "country": "Canada",
      "iso2": "CA",
      "admin_name": "Quebec",
      "capital": "",
      "population": "4821",
      "population_proper": "4821"
    },
    {
      "city": "La Prairie",
      "lat": "45.42",
      "lng": "-73.50",
      "country": "Canada",
      "iso2": "CA",
      "admin_name": "Quebec",
      "capital": "",
      "population": "25679",
      "population_proper": "25679"
    },
    {
      "city": "La Sarre",
      "lat": "48.80",
      "lng": "-79.20",
      "country": "Canada",
      "iso2": "CA",
      "admin_name": "Quebec",
      "capital": "",
      "population": "7713",
      "population_proper": "7713"
    },
    {
      "city": "La Tuque",
      "lat": "47.43",
      "lng": "-72.78",
      "country": "Canada",
      "iso2": "CA",
      "admin_name": "Quebec",
      "capital": "",
      "population": "10593",
      "population_proper": "10593"
    },
    {
      "city": "Laval",
      "lat": "45.57",
      "lng": "-73.73",
      "country": "Canada",
      "iso2": "CA",
      "admin_name": "Quebec",
      "capital": "",
      "population": "422993",
      "population_proper": "422993"
    },
    {
      "city": "Lavaltrie",
      "lat": "45.88",
      "lng": "-73.27",
      "country": "Canada",
      "iso2": "CA",
      "admin_name": "Quebec",
      "capital": "",
      "population": "13207",
      "population_proper": "13207"
    },
    {
      "city": "Lebel-sur-Quévillon",
      "lat": "49.05",
      "lng": "-76.98",
      "country": "Canada",
      "iso2": "CA",
      "admin_name": "Quebec",
      "capital": "",
      "population": "1940",
      "population_proper": "1940"
    },
    {
      "city": "Léry",
      "lat": "45.33",
      "lng": "-73.75",
      "country": "Canada",
      "iso2": "CA",
      "admin_name": "Quebec",
      "capital": "",
      "population": "8989",
      "population_proper": "8989"
    },
    {
      "city": "Lévis",
      "lat": "46.80",
      "lng": "-71.18",
      "country": "Canada",
      "iso2": "CA",
      "admin_name": "Quebec",
      "capital": "",
      "population": "148840",
      "population_proper": "148840"
    },
    {
      "city": "Longueuil",
      "lat": "45.54",
      "lng": "-73.51",
      "country": "Canada",
      "iso2": "CA",
      "admin_name": "Quebec",
      "capital": "",
      "population": "247100",
      "population_proper": "247100"
    },
    {
      "city": "Lorraine",
      "lat": "45.67",
      "lng": "-73.80",
      "country": "Canada",
      "iso2": "CA",
      "admin_name": "Quebec",
      "capital": "",
      "population": "9818",
      "population_proper": "9818"
    },
    {
      "city": "Louiseville",
      "lat": "46.25",
      "lng": "-72.94",
      "country": "Canada",
      "iso2": "CA",
      "admin_name": "Quebec",
      "capital": "",
      "population": "8121",
      "population_proper": "8121"
    },
    {
      "city": "L'Assomption",
      "lat": "45.83",
      "lng": "-73.42",
      "country": "Canada",
      "iso2": "CA",
      "admin_name": "Quebec",
      "capital": "",
      "population": "24860",
      "population_proper": "24860"
    },
    {
      "city": "L'Ancienne-Lorette",
      "lat": "46.79",
      "lng": "-71.35",
      "country": "Canada",
      "iso2": "CA",
      "admin_name": "Quebec",
      "capital": "",
      "population": "17699",
      "population_proper": "17699"
    },
    {
      "city": "L'Épiphanie",
      "lat": "45.83",
      "lng": "-73.43",
      "country": "Canada",
      "iso2": "CA",
      "admin_name": "Quebec",
      "capital": "",
      "population": "5961",
      "population_proper": "5961"
    },
    {
      "city": "L'Île-Cadieux",
      "lat": "45.40",
      "lng": "-74.03",
      "country": "Canada",
      "iso2": "CA",
      "admin_name": "Quebec",
      "capital": "",
      "population": "0",
      "population_proper": "0"
    },
    {
      "city": "L'Île-Dorval",
      "lat": "45.43",
      "lng": "-73.76",
      "country": "Canada",
      "iso2": "CA",
      "admin_name": "Quebec",
      "capital": "", 
      "population": "0",
      "population_proper": "0"
    },
    {
      "city": "L'Île-Perrot",
      "lat": "45.38",
      "lng": "-73.95",
      "country": "Canada",
      "iso2": "CA",
      "admin_name": "Quebec",
      "capital": "",
      "population": "10128",
      "population_proper": "10128"
    },
    {
      "city": "L'Islet",
      "lat": "47.10",
      "lng": "-70.27",
      "country": "Canada",
      "iso2": "CA",
      "admin_name": "Quebec",
      "capital": "",
      "population": "3379",
      "population_proper": "3379"
    },
    {
      "city": "La Malbaie",
      "lat": "47.65",
      "lng": "-70.15",
      "country": "Canada",
      "iso2": "CA",
      "admin_name": "Quebec",
      "capital": "",
      "population": "8922",
      "population_proper": "8922"
    },
    {
      "city": "La Pocatière",
      "lat": "47.37",
      "lng": "-70.05",
      "country": "Canada",
      "iso2": "CA",
      "admin_name": "Quebec",
      "capital": "",
      "population": "4821",
      "population_proper": "4821"
    },
    {
      "city": "La Prairie",
      "lat": "45.42",
      "lng": "-73.50",
      "country": "Canada",
      "iso2": "CA",
      "admin_name": "Quebec",
      "capital": "",
      "population": "25679",
      "population_proper": "25679"
    },
    {
      "city": "La Sarre",
      "lat": "48.80",
      "lng": "-79.20",
      "country": "Canada",
      "iso2": "CA",
      "admin_name": "Quebec",
      "capital": "", 
      "population": "7713",
      "population_proper": "7713"
    },
    {
      "city": "La Tuque",
      "lat": "47.43",
      "lng": "-72.78",
      "country": "Canada",
      "iso2": "CA",
      "admin_name": "Quebec",
      "capital": "",
      "population": "10593",
      "population_proper": "10593"
    },
    {
      "city": "Laval",
      "lat": "45.57",
      "lng": "-73.73",
      "country": "Canada",
      "iso2": "CA",
      "admin_name": "Quebec",
      "capital": "",
      "population": "422993",
      "population_proper": "422993"
    },
    {
      "city": "Lavaltrie",
      "lat": "45.88",
      "lng": "-73.27",
      "country": "Canada",
      "iso2": "CA",
      "admin_name": "Quebec",
      "capital": "",
      "population": "13207",
      "population_proper": "13207"
    },
    {
      "city": "Lebel-sur-Quévillon",
      "lat": "49.05",
      "lng": "-76.98",
      "country": "Canada",
      "iso2": "CA",
      "admin_name": "Quebec",
      "capital": "", 
      "population": "1940",
      "population_proper": "1940"
    },
    {
      "city": "Léry",
      "lat": "45.33",
      "lng": "-73.75",
      "country": "Canada",
      "iso2": "CA",
      "admin_name": "Quebec",
      "capital": "",
      "population": "8989",
      "population_proper": "8989"
    },
    {
      "city": "Lévis",
      "lat": "46.80",
      "lng": "-71.18",
      "country": "Canada",
      "iso2": "CA",
      "admin_name": "Quebec",
      "capital": "", 
      "population": "148840",
      "population_proper": "148840"
    },
    {
      "city": "Longueuil",
      "lat": "45.54",
      "lng": "-73.51",
      "country": "Canada",
      "iso2": "CA",
      "admin_name": "Quebec",
      "capital": "", 
      "population": "247100",
      "population_proper": "247100"
    },
    {
      "city": "Lorraine",
      "lat": "45.67",
      "lng": "-73.80",
      "country": "Canada",
      "iso2": "CA",
      "admin_name": "Quebec",
      "capital": "", 
      "population": "9818",
      "population_proper": "9818"
    },
    {
      "city": "Louiseville",
      "lat": "46.25",
      "lng": "-72.94",
      "country": "Canada",
      "iso2": "CA",
      "admin_name": "Quebec",
      "capital": "", 
      "population": "8121",
      "population_proper": "8121"
    },
    {
      "city": "Macamic",
      "lat": "48.75",
      "lng": "-79.23",
      "country": "Canada",
      "iso2": "CA",
      "admin_name": "Quebec",
      "capital": "", 
      "population": "1316",
      "population_proper": "1316"
    },
    {
      "city": "Magog",
      "lat": "45.27",
      "lng": "-72.15",
      "country": "Canada",
      "iso2": "CA",
      "admin_name": "Quebec",
      "capital": "", 
      "population": "26195",
      "population_proper": "26195"
    },
    {
      "city": "Malartic",
      "lat": "48.13",
      "lng": "-78.13",
      "country": "Canada",
      "iso2": "CA",
      "admin_name": "Quebec",
      "capital": "", 
      "population": "3496",
      "population_proper": "3496"
    },
    {
      "city": "Maniwaki",
      "lat": "46.38",
      "lng": "-75.97",
      "country": "Canada",
      "iso2": "CA",
      "admin_name": "Quebec",
      "capital": "", 
      "population": "3963",
      "population_proper": "3963"
    },
    {
      "city": "Marieville",
      "lat": "45.43",
      "lng": "-73.13",
      "country": "Canada",
      "iso2": "CA",
      "admin_name": "Quebec",
      "capital": "", 
      "population": "10052",
      "population_proper": "10052"
    },
    {
      "city": "Mascouche",
      "lat": "45.75",
      "lng": "-73.60",
      "country": "Canada",
      "iso2": "CA",
      "admin_name": "Quebec",
      "capital": "", 
      "population": "50650",
      "population_proper": "50650"
    },
    {
      "city": "Matagami",
      "lat": "49.75",
      "lng": "-77.63",
      "country": "Canada",
      "iso2": "CA",
      "admin_name": "Quebec",
      "capital": "", 
      "population": "1457",
      "population_proper": "1457"
    },
    {
      "city": "Mascouche",
      "lat": "45.75",
      "lng": "-73.60",
      "country": "Canada",
      "iso2": "CA",
      "admin_name": "Quebec",
      "capital": "", 
      "population": "50650",
      "population_proper": "50650"
    },
    {
      "city": "Matagami",
      "lat": "49.75",
      "lng": "-77.63",
      "country": "Canada",
      "iso2": "CA",
      "admin_name": "Quebec",
      "capital": "", 
      "population": "1457",
      "population_proper": "1457"
    },
    {
      "city": "Matawinie",
      "lat": "46.55",
      "lng": "-73.73",
      "country": "Canada",
      "iso2": "CA",
      "admin_name": "Quebec",
      "capital": "", 
      "population": "4877",
      "population_proper": "4877"
    },
    {
      "city": "Metabetchouan–Lac-à-la-Croix",
      "lat": "48.40",
      "lng": "-71.86",
      "country": "Canada",
      "iso2": "CA",
      "admin_name": "Quebec",
      "capital": "", 
      "population": "2985",
      "population_proper": "2985"
    },
    {
      "city": "Métis-sur-Mer",
      "lat": "48.86",
      "lng": "-68.64",
      "country": "Canada",
      "iso2": "CA",
      "admin_name": "Quebec",
      "capital": "", 
      "population": "553",
      "population_proper": "553"
    },
    {
      "city": "Mirabel",
      "lat": "45.65",
      "lng": "-74.08",
      "country": "Canada",
      "iso2": "CA",
      "admin_name": "Quebec",
      "capital": "", 
      "population": "50640",
      "population_proper": "50640"
    },
    {
      "city": "Mont-Joli",
      "lat": "48.58",
      "lng": "-68.18",
      "country": "Canada",
      "iso2": "CA",
      "admin_name": "Quebec",
      "capital": "", 
      "population": "5943",
      "population_proper": "5943"
    },
    {
      "city": "Mont-Laurier",
      "lat": "46.55",
      "lng": "-75.50",
      "country": "Canada",
      "iso2": "CA",
      "admin_name": "Quebec",
      "capital": "", 
      "population": "13538",
      "population_proper": "13538"
    },
    {
      "city": "Montmagny",
      "lat": "46.98",
      "lng": "-70.55",
      "country": "Canada",
      "iso2": "CA",
      "admin_name": "Quebec",
      "capital": "", 
      "population": "11240",
      "population_proper": "11240"
    },
    {
      "city": "Montreal",
      "lat": "45.50",
      "lng": "-73.67",
      "country": "Canada",
      "iso2": "CA",
      "admin_name": "Quebec",
      "capital": "admin",
      "population": "367800",
      "population_proper": "367800"
    },
    {
      "city": "Montreal East",
      "lat": "45.64",
      "lng": "-73.50",
      "country": "Canada",
      "iso2": "CA",
      "admin_name": "Quebec",
      "capital": "minor",
      "population": "3607",
      "population_proper": "3607"
    },
    {
      "city": "Montreal West",
      "lat": "45.45",
      "lng": "-73.65",
      "country": "Canada",
      "iso2": "CA",
      "admin_name": "Quebec",
      "capital": "minor",
      "population": "5134",
      "population_proper": "5134"
    },
    {
      "city": "Montréal-Ouest",
      "lat": "45.45",
      "lng": "-73.65",
      "country": "Canada",
      "iso2": "CA",
      "admin_name": "Quebec",
      "capital": "", 
      "population": "5145",
      "population_proper": "5145"
    },
    {
      "city": "Morgan",
      "lat": "45.23",
      "lng": "-72.25",
      "country": "Canada",
      "iso2": "CA",
      "admin_name": "Quebec",
      "capital": "", 
      "population": "0",
      "population_proper": "0"
    },
    {
      "city": "Moricetown",
      "lat": "54.50",
      "lng": "-128.60",
      "country": "Canada",
      "iso2": "CA",
      "admin_name": "Quebec",
      "capital": "", 
      "population": "0",
      "population_proper": "0"
    },
    {
      "city": "Morin-Heights",
      "lat": "45.88",
      "lng": "-74.25",
      "country": "Canada",
      "iso2": "CA",
      "admin_name": "Quebec",
      "capital": "", 
      "population": "3452",
      "population_proper": "3452"
    },
    {
      "city": "Mount Royal",
      "lat": "45.52",
      "lng": "-73.65",
      "country": "Canada",
      "iso2": "CA",
      "admin_name": "Quebec",
      "capital": "minor",
      "population": "6715",
      "population_proper": "6715"
    },
    {
      "city": "Murdochville",
      "lat": "48.95",
      "lng": "-65.50",
      "country": "Canada",
      "iso2": "CA",
      "admin_name": "Quebec",
      "capital": "", 
      "population": "764",
      "population_proper": "764"
    },
    {
      "city": "Napierville",
      "lat": "45.23",
      "lng": "-73.40",
      "country": "Canada",
      "iso2": "CA",
      "admin_name": "Quebec",
      "capital": "", 
      "population": "3282",
      "population_proper": "3282"
    },
    {
      "city": "Nicolet",
      "lat": "46.22",
      "lng": "-72.62",
      "country": "Canada",
      "iso2": "CA",
      "admin_name": "Quebec",
      "capital": "", 
      "population": "7589",
      "population_proper": "7589"
    },
    {
      "city": "Nominingue",
      "lat": "46.42",
      "lng": "-75.03",
      "country": "Canada",
      "iso2": "CA",
      "admin_name": "Quebec",
      "capital": "", 
      "population": "0",
      "population_proper": "0"
    },
    {
      "city": "Notre-Dame-de-l'Île-Perrot",
      "lat": "45.38",
      "lng": "-73.98",
      "country": "Canada",
      "iso2": "CA",
      "admin_name": "Quebec",
      "capital": "", 
      "population": "11278",
      "population_proper": "11278"
    },
    {
      "city": "Notre-Dame-des-Prairies",
      "lat": "46.05",
      "lng": "-73.43",
      "country": "Canada",
      "iso2": "CA",
      "admin_name": "Quebec",
      "capital": "", 
      "population": "10495",
      "population_proper": "10495"
    },
    {
      "city": "Notre-Dame-du-Bon-Conseil",
      "lat": "46.07",
      "lng": "-72.67",
      "country": "Canada",
      "iso2": "CA",
      "admin_name": "Quebec",
      "capital": "", 
      "population": "1637",
      "population_proper": "1637"
    },
    {
      "city": "Notre-Dame-du-Lac",
      "lat": "47.65",
      "lng": "-68.89",
      "country": "Canada",
      "iso2": "CA",
      "admin_name": "Quebec",
      "capital": "", 
      "population": "0",
      "population_proper": "0"
    },
    {
      "city": "Notre-Dame-du-Mont-Carmel",
      "lat": "46.40",
      "lng": "-72.68",
      "country": "Canada",
      "iso2": "CA",
      "admin_name": "Quebec",
      "capital": "", 
      "population": "3395",
      "population_proper": "3395"
    },
    {
      "city": "Notre-Dame-du-Rosaire",
      "lat": "47.60",
      "lng": "-70.23",
      "country": "Canada",
      "iso2": "CA",
      "admin_name": "Quebec",
      "capital": "", 
      "population": "0",
      "population_proper": "0"
    },
    {
      "city": "Notre-Dame-du-Sacré-Cœur-d'Issoudun",
      "lat": "45.97",
      "lng": "-72.35",
      "country": "Canada",
      "iso2": "CA",
      "admin_name": "Quebec",
      "capital": "", 
      "population": "0",
      "population_proper": "0"
    },
    {
      "city": "Notre-Dame-du-Sourire",
      "lat": "46.03",
      "lng": "-73.13",
      "country": "Canada",
      "iso2": "CA",
      "admin_name": "Quebec",
      "capital": "", 
      "population": "0",
      "population_proper": "0"
    },
    {
      "city": "Notre-Dame-du-Très-Saint-Sacrement",
      "lat": "45.80",
      "lng": "-73.58",
      "country": "Canada",
      "iso2": "CA",
      "admin_name": "Quebec",
      "capital": "", 
      "population": "0",
      "population_proper": "0"
    },
    {
      "city": "Notre-Dame-du-Très-Saint-Rosaire",
      "lat": "46.02",
      "lng": "-73.10",
      "country": "Canada",
      "iso2": "CA",
      "admin_name": "Quebec",
      "capital": "", 
      "population": "0",
      "population_proper": "0"
    },
    {
      "city": "Notre-Dame-du-Val",
      "lat": "46.57",
      "lng": "-70.88",
      "country": "Canada",
      "iso2": "CA",
      "admin_name": "Quebec",
      "capital": "", 
      "population": "0",
      "population_proper": "0"
    },
    {
      "city": "Notre-Dame-du-Val-Caron",
      "lat": "46.67",
      "lng": "-71.05",
      "country": "Canada",
      "iso2": "CA",
      "admin_name": "Quebec",
      "capital": "", 
      "population": "0",
      "population_proper": "0"
    },
    {
      "city": "Notre-Dame-du-Laus",
      "lat": "46.58",
      "lng": "-75.33",
      "country": "Canada",
      "iso2": "CA",
      "admin_name": "Quebec",
      "capital": "", 
      "population": "1624",
      "population_proper": "1624"
    },
    {
      "city": "Notre-Dame-du-Mont-Carmel",
      "lat": "46.40",
      "lng": "-72.68",
      "country": "Canada",
      "iso2": "CA",
      "admin_name": "Quebec",
      "capital": "", 
      "population": "3395",
      "population_proper": "3395"
    },
    {
      "city": "Notre-Dame-du-Rosaire",
      "lat": "47.60",
      "lng": "-70.23",
      "country": "Canada",
      "iso2": "CA",
      "admin_name": "Quebec",
      "capital": "", 
      "population": "0",
      "population_proper": "0"
    },
    {
      "city": "Notre-Dame-du-Sacré-Cœur-d'Issoudun",
      "lat": "45.97",
      "lng": "-72.35",
      "country": "Canada",
      "iso2": "CA",
      "admin_name": "Quebec",
      "capital": "", 
      "population": "0",
      "population_proper": "0"
    },
    {
      "city": "Notre-Dame-du-Sourire",
      "lat": "46.03",
      "lng": "-73.13",
      "country": "Canada",
      "iso2": "CA",
      "admin_name": "Quebec",
      "capital": "", 
      "population": "0",
      "population_proper": "0"
    },
    {
      "city": "Notre-Dame-du-Très-Saint-Sacrement",
      "lat": "45.80",
      "lng": "-73.58",
      "country": "Canada",
      "iso2": "CA",
      "admin_name": "Quebec",
      "capital": "", 
      "population": "0",
      "population_proper": "0"
    },
    {
      "city": "Notre-Dame-du-Très-Saint-Rosaire",
      "lat": "46.02",
      "lng": "-73.10",
      "country": "Canada",
      "iso2": "CA",
      "admin_name": "Quebec",
      "capital": "", 
      "population": "0",
      "population_proper": "0"
    },
    {
      "city": "Notre-Dame-du-Val",
      "lat": "46.57",
      "lng": "-70.88",
      "country": "Canada",
      "iso2": "CA",
      "admin_name": "Quebec",
      "capital": "", 
      "population": "0",
      "population_proper": "0"
    },
    {
      "city": "Notre-Dame-du-Val-Caron",
      "lat": "46.67",
      "lng": "-71.05",
      "country": "Canada",
      "iso2": "CA",
      "admin_name": "Quebec",
      "capital": "", 
      "population": "0",
      "population_proper": "0"
    }
  ]